구분,가게이름,카테코리(대),카테고리(중),주소,link,caption,lat,lon,benefit
1,샤인휘트니스 어린이대공원역점,건강,헬스장,서울특별시 광진구 화양동 527 KCC파크타운 B1 샤인휘트니스,https://www.instagram.com/alliance.student.konkuk/p/DGx7_Dfv91b/,[건국대학교 총학생회 그린 X 샤인휘트니스 어린이대공원역점],37.54658274,127.0750378,"모바일 학생증 제시 시 회원권 7개월 28만 7천원(부가세 포함), 1학기 무상 정지, 회원권 13개월 43만 9천원(부가세 포함), 2학기 무상 정지, 직계 가족까지 혜택 적용(증빙 서류 지참 필수), 오픈 전 사전 등록 시 1개월 추가 지급(04/01 오픈 예정)"
2,건강사우나,건강,찜질방,서울특별시 광진구 자양동 520-9 신축빌딩,https://www.instagram.com/alliance.student.konkuk/p/DGx8XJKPrxU/,[건국대학교 총학생회 그린 X 건강 사우나],37.53419571,127.0743074,주간 (오전 9시-오후 20시) 1천원 할인
3,맥스토탈 휘트니스 건대점,건강,헬스장,서울특별시 광진구 화양동 6-2 연한빌딩 6층 맥스토탈 휘트니스 건대점,https://www.instagram.com/alliance.student.konkuk/p/DGx8Ju6vt2l/,[건국대학교 총학생회 그린 X 맥스토탈 휘트니스 건대점],37.5406477,127.0701642,"총액 10% 할인 (신입생 대상 3개월 10%, 6개월 15%, 12개월 20% 할인)"
4,비취보석사우나,건강,찜질방,서울특별시 광진구 자양동 553-501 삼희빌딩,https://www.instagram.com/alliance.student.konkuk/p/DGx8FzcvgiC/,[건국대학교 총학생회 그린 X 비취보석사우나],37.53424389,127.0712756,주간 (오전 9시-오후 20시) 1천원 할인
5,아메리카요가 건대점,건강,요가원,서울특별시 광진구 화양동 48-3 5층,https://www.instagram.com/alliance.student.konkuk/p/DGx7XD2PoST/,[건국대학교 총학생회 그린 X 아메리카 요가 건대점],37.54142644,127.0672116,"상담 예약 시 ""건대생"" 이라고 말씀해 주신 후, 인스타 캡쳐본과 학생증 제시하면 10% 할인 (기간별 상이), 시험 기간, 본가 방문 시 홀딩 가능 (서류 첨부 필수)"
6,어게인짐 건대입구역점,건강,헬스장,"서울특별시 광진구 자양동 8-4 2층, 3층",https://www.instagram.com/alliance.student.konkuk/p/DGx7SRrvzzp/,[건국대학교 총학생회 그린 X 어게인짐 건대입구역점],37.5408703,127.0671183,"3개월 16만 5천원, 6개월 26만 4천원, 12개월 39만 6천원으로 이용 가능 , 가입비 면제 , 운동복 무료 제공"
7,에이블짐 건대입구역점,건강,헬스장,서울특별시 광진구 자양동 9-4 몰오브케이 지하1층,https://www.instagram.com/alliance.student.konkuk/p/DGx7Nr-vvFO/,[건국대학교 총학생회 그린 X 에이블짐 건대입구역점],37.53978867,127.0669346,"1. 3개월 : 18만원(월 6만원), 6개월 : 33만원(월 5.5만원), 10개월 : 50만원(월 5만원)
2.동반 가입 및 지인 소개 시 3개월 : 16만 5천원, 6개월 : 31만 5천원, 10개월 : 48만 5천원
3. 운동복, 수건 무료 제공, 무료 PT 최대 3회 제공
4. PT 회당 5만원"
8,이브필라테스 건대프리미엄점,건강,필라테스,서울특별시 광진구 화양동 5-45 3층,https://www.instagram.com/alliance.student.konkuk/p/DGx7CSFPipo/,[건국대학교 총학생회 그린 X 이브필라테스 건대프리미엄점],37.54159679,127.0710974,"제휴 혜택 : 총액의 15% 할인 혜택 및 당일 등록 혜택으로 횟수 추가 증정. 동반 등록 시 추가 혜택 (기간, 횟수 중 택 1) 증정, 네이버 리뷰 참여 필수"
9,휘트니스 캐리스타,건강,헬스장,서울특별시 광진구 자양동 74-14 한강복합빌딩 2층 휘트니스 캐리스타,https://www.instagram.com/alliance.student.konkuk/p/DGx6sVMPE_O/,[건국대학교 총학생회 그린 X 휘트니스 캐리스타],37.53231832,127.0667331,"3개월에 18만원, 6개월에 30만원 - 회원권"
10,로젠필라테스 구의점,건강,필라테스,서울 광진구 자양로144 B01호,https://www.instagram.com/p/DGx8S90Pvxd/?img_index=1,[건국대학교 총학생회 그린 X 로젠 필라테스],37.54043584,127.0836372,"1. 그룹 수업 1개월~5개월 회원권 5%씩 할인 적용
2. 개인수업 10회권은 회당 6만원 할인 적용, 20회, 30회 권은 회당 5만 5천원으로 할인 적용
3. 시험 기간에 정지(3주까지) 가능"
11,필라테스 휘티니스베이,건강,필라테스,서울 광진구 화양도193 201호,https://www.instagram.com/p/DGx66ilvW60/?utm_source=ig_web_copy_link&igsh=ejhlMmk4djViODhz,[건국대학교 총학생회 그린 X 필라베이&휘트니스베이 PT],37.54418383,127.0700473,가입 횟수와 상관없이 그룹 필라테스 2회 추가 및 기간 15일 추가 증정 및 헬스 개인 PT 1회 제공
12,필라테스 필라베이 휘트니스,건강,필라테스,서울 광진구 동일로30길 52 2층,https://www.instagram.com/p/DGx6xSAvaC-/?utm_source=ig_web_copy_link&igsh=anRjaTgzeGFpaXAx,[건국대학교 총학생회 그린 X 필라베이휘트니스화양세종대점],37.54740058,127.0701832,가입 횟수와 상관없이 그룹 필라테스 2회 및 기간 15일 추가 증정 및 헬스 개인 PT 1회 제공
13,타운케이 헬스&PT 건대점,건강,헬스장,서울 광진구 능동로13길 39 한아름쇼핑센터 2층 휘트니스타운케이,https://www.instagram.com/p/DGx6lf_Pc3E/?utm_source=ig_web_copy_link&igsh=MWRwY3hhOXhlMGgwMw==,[건국대학교 총학생회 그린 X 휘트니스 타운케이],37.54395902,127.0697577,"1. 헬스 4개월- 24만원
2. PT 10회+1개월-70만원, PT 20회+2개월-130만원
(부가세 포함 금액, 네이버 영수증 필수, 할당, 환불, 양도 불가 상품)"
14,그루트 클라이밍,건강,암벽등반,서울특별시 성동구 성수일로 19 유한타워 지하2층,https://www.instagram.com/p/DNGIiGCvraM/?utm_source=ig_web_copy_link&igsh=dzVsbjkwaDlldmNo,[건국대학교 총학생회 그린 X 그루트 클라이밍],37.54233342,127.0485653,"1. 일일이용권: 15,000원 (암벽화 대여 무료 포함)
2. 정기권 할인 : 주중권 결제 시 10,000원 할인, 1개월권 결제 시: 20,000원 할인
3. 일일체험강습: 5,000원 할인(체험 후 스타터패키지 등록 시, 체험비 전액 환불)
4. 재학생, 휴학생, 대학원생 모두 이용 가능, 클라이밍 경험 없을 시, 일일체험강습 필수 수강"
15,약손명가,건강,"피부, 체형관리",약손명가 전국 전 지점,https://www.instagram.com/p/DM157wSv8_p/?utm_source=ig_web_copy_link&igsh=dzM2d2hxZ2xuaG44,[건국대학교 총학생회 그린 X 약손명가 제휴 안내],,,"1. 신규 고객 대상 10회 이상 총액 10% 할인
2. 재티켓 10회 이상 총액 5% 할인"
16,다빈치보드게임카페,교육/엔터,보드카페,서울특별시 광진구 화양동 7-12 6층 다빈치보드게임카페,https://www.instagram.com/alliance.student.konkuk/p/DN3RV673un6/,[건국대학교 총학생회 그린 X 다빈치보드게임카페],37.5407394,127.0695861,"1시간에 2000원, 단체 이용시 정액요금제 사용 가능(평일) (단, 입실 전 학생증 제시)"
17,원플레이 건대점,교육/엔터,오락시설,"서울특별시 광진구 화양동 5-43 2층, 3층",https://www.instagram.com/alliance.student.konkuk/p/DHsG89JPugt/,[건국대학교 총학생회 그린 X 원플레이 건대점],37.54175611,127.0712148,"1. 2시간 이용 시 1시간 추가 이용권 제공
2. 4인 이상 방문 시 팝콘, 츄러스 중 택 1 제공
3. 평일 11:30~14:30 사이 6,000원 이상 식사 구매시 1시간 무료 이용권 제공(공휴일 제외)"
18,거북이 보드게임 건대,교육/엔터,보드카페,서울특별시 광진구 화양동 12-36 지하1층,https://www.instagram.com/alliance.student.konkuk/p/DGx6U4YPicP/,[건국대학교 총학생회 그린 X 거북이 보드게임 건대],37.54362545,127.0704062,"평일 종일권 10% 할인, 주말 종일권 13% 할인"
19,건대 놀거리 셀프사진관 데이트코스 흑백공간,교육/엔터,"셀프,대여스튜디오",서울특별시 광진구 화양동 5-16 폴라리스빌딩 3층,https://www.instagram.com/alliance.student.konkuk/p/DGx6RPIvIJf/,[건국대학교 총학생회 그린 X 건대 놀거리 셀프사진관 데이트코스 흑백공간],37.54218323,127.0709872,"1. 전체 촬영 원본 구매 시 인원 수 상관없이 1만원 할인
2. 셀렉 사진 한해서 랜덤 2장 추가 제공
3. 보정 파일 에어드롭, 카카오톡 전송 중 택 1 제공
*기념일, 생일날 등 방문 시 액자 증정"
20,그럼피 러버스 건대점,교육/엔터,"꽃집,꽃배달",서울특별시 광진구 자양동 226-9 1층 103호,https://www.instagram.com/alliance.student.konkuk/p/DGx6LVbP29h/,[건국대학교 총학생회 그린 X 그럼피 러버스 건대점],37.538632,127.0759504,2만원 이상 구매 시 총액의 10% 할인
21,"꽃,한양플라워",교육/엔터,"꽃집,꽃배달",서울특별시 광진구 화양동 2-49,https://www.instagram.com/alliance.student.konkuk/p/DGx6C-9vZqd/,"[건국대학교 총학생회 그린 X 꽃, 한양플라워]",37.54383233,127.0721708,"전 품목(꽃다발, 꽃바구니, 화분) 10% 할인"
22,뉴데이 스튜디오,교육/엔터,"사진,스튜디오",서울특별시 광진구 화양동 21-23 케이타워오피스텔 a동 지하2층,https://www.instagram.com/alliance.student.konkuk/p/DGx588YPw1u/,[건국대학교 총학생회 그린 X 뉴데이스튜디오],37.54781312,127.0687109,"1.단체사진 :1인 1만원 (10인 미만 1만 5천원, 학생회 부서별 무료촬영)"
23,디난트 파티룸,교육/엔터,장소대여,서울특별시 광진구 화양동 495-27 3층 디난트파티룸,https://www.instagram.com/alliance.student.konkuk/p/DGx5tW_PNi4/,[건국대학교 총학생회 그린 X 디난트 파티룸],37.54536833,127.0767876,리뷰 작성 시 예약 총액의 10% 할인 (보증금 제외)
24,락휴 코인노래연습장 건대중문점,교육/엔터,노래방,서울특별시 광진구 화양동 5-12 지하1층,https://www.instagram.com/alliance.student.konkuk/p/DHsKZrXP3dn/,[건국대학교 총학생회 그린 X 락휴 코인노래연습장 건대중문점],37.5424055,127.0712979,"2천원당 1곡 추가, 시간 30분당 5분 추가 (주말 및 공휴일 제외, 근무자 부재 시 연락 요망)"
25,락휴 코인노래연습장 서울 건대입구역점,교육/엔터,노래방,서울특별시 광진구 화양동 5-84 B1,https://www.instagram.com/alliance.student.konkuk/p/DHsKg83PDP5/,[건국대학교 총학생회 그린 X 락휴 코인노래연습장 서울 건대입구역점],37.54088566,127.0707613,"2천원당 1곡 추가, 시간 30분당 5분 추가 (주말 및 공휴일 제외, 근무자 부재 시 연락 요망)"
26,서울반지공방 반지만들기카페 건대점,교육/엔터,공방,서울특별시 광진구 자양동 7-13 성신빌딩 2층,https://www.instagram.com/alliance.student.konkuk/p/DGx5MogvB8K/,[건국대학교 총학생회 그린 X 서울반지공방 반지만들기카페 건대점],37.54006373,127.0685292,총액의 10% 할인
27,스코관리형스터디카페 구의1호점,교육/엔터,스터디카페,서울특별시 광진구 구의동 254-36 우남빌딩 3층,https://www.instagram.com/alliance.student.konkuk/p/DGx5DvKPqvT/,[건국대학교 총학생회 그린 X 스코관리형스터디카페 구의1호점],37.5422426,127.0837781,"1. 일반좌석 : 4주권 2만 9천원 할인, 8주권 6만원 할인, 100시간 3만 1천원 할인, 150시간 3만 5천원 할인, 200시간 4만원 할인, 스터디룸(2인 1시간) 1천원 할인"
28,스터디카페 혜윰 구의점,교육/엔터,스터디카페,서울특별시 광진구 구의동 250-19 하림빌딩 2층,https://www.instagram.com/alliance.student.konkuk/p/DGx43i8P9X8/,[건국대학교 총학생회 그린 X 스터디카페 혜윰 구의점],37.54229794,127.0843876,"1. 일반좌석 : 4주권 2만 9천원 할인, 8주권 6만원 할인, 100시간 3만 1천원 할인, 150시간 3만 5천원 할인, 200시간 4만원 할인, 스터디룸(2인 1시간) 1천원 할인"
29,스페이스온새,교육/엔터,장소대여,서울특별시 광진구 화양동 35-16 지하1층,https://www.instagram.com/alliance.student.konkuk/p/DGx4tL_PGGO/,[건국대학교 총학생회 그린 X 스페이스온새],37.54333483,127.0678643,건국대학교 학생증 인증 시 총액의 20% 할인(예약자 성함과 학생증 명의가 동일해야 함.)
30,쏘플파티룸 건대캐치볼,교육/엔터,장소대여,서울특별시 광진구 화양동 18-26 지하1층,https://www.instagram.com/alliance.student.konkuk/p/DGx3b__Pd7s/,[건국대학교 총학생회 그린 X 쏘플파티룸 건대캐치볼],37.54756906,127.0702094,총액의 10% 할인
31,오디너리,교육/엔터,장소대여,서울특별시 광진구 자양동 773-8 지하1층,https://www.instagram.com/alliance.student.konkuk/p/DGx3UxfPmUW/,[건국대학교 총학생회 그린 X 오디너리],37.53781664,127.0791855,건국대학교 학생증 인증 시 총액의 20% 할인(예약자 성함과 학생증 명의가 동일해야 함.)
32,작심스터디카페 화양점,교육/엔터,스터디카페,서울특별시 광진구 화양동 18-26 2~4층,https://www.instagram.com/alliance.student.konkuk/p/DGx3Px5v7O5/,[건국대학교 총학생회 그린 X 작심스터디카페 화양점],37.54756906,127.0702094,"1. 자유석 50, 100, 200시간 결제 시 20% 시간 추가 제공"
33,저스트스캔 건대점,교육/엔터,자료처리업,서울특별시 광진구 화양동 7-3 한림타워 1층 버거킹 가로질러 109호,https://www.instagram.com/alliance.student.konkuk/p/DGx3LlNvafB/,[건국대학교 총학생회 그린 X 저스트스캔 건대점],37.54081604,127.0690313,기본 이용 요금 50% 할인
34,제노PC방 건대후문점,교육/엔터,PC방,서울특별시 광진구 화양동 495-25 3층,https://www.instagram.com/alliance.student.konkuk/p/DGx3IUmPqSX/,[건국대학교 총학생회 그린 X 제노PC방 건대후문점],37.5452426,127.076295,"계좌이체 또는 현금으로 결제 시 1만원권 2시간 서비스, 2만권 5시간 서비스 시간을 제공"
35,테크런 건대1호점,교육/엔터,오락시설,서울특별시 광진구 화양동 2-46 지하1층,https://www.instagram.com/alliance.student.konkuk/p/DGx3D7nPt8k/,[건국대학교 총학생회 그린 X 테크런 건대 1호점],37.54412716,127.0722871,1인당 음료 1개 제공
36,홈워크 스터디카페 건대점,교육/엔터,스터디카페,서울특별시 광진구 화양동 33-34 2층,https://www.instagram.com/alliance.student.konkuk/p/DGx2_xPvSim/,[건국대학교 총학생회 그린 X 홈워크 스터디카페 건대점],37.54486524,127.0688551,"10% 시간, 기간 추가 증정
(50시간->55시간 / 100시간->110시간 / 200시간->220시간 / 28일 -> 31일)
*매월 1~5일(홈워크데이) 적용 불가
*결제 후 카카오톡 채널 [홈워크]로 학생증/성함/휴대폰 번호 전달 시 이벤트 적용"
37,홈즈앤루팡 보드게임카페 건대점,교육/엔터,보드카페,서울특별시 광진구 화양동 6-2 연한빌딩 2층,https://www.instagram.com/alliance.student.konkuk/p/DGx25wfPOiH/,[건국대학교 총학생회 그린 X 홈즈앤루팡 보드게임카페 건대점],37.5406477,127.0701642,"청소년 요금으로 적용 / 1시간 2천원, 이후 1인당 15분당 500원씩 부과 (학부생만 적용, 주말 및 공휴일 제외)"
38,히어로보드게임카페 건대본점,교육/엔터,보드카페,서울특별시 광진구 화양동 10-1 2층,https://www.instagram.com/alliance.student.konkuk/p/DGx2zPovWTq/,[건국대학교 총학생회 그린 X 히어로보드게임카페 건대본점],37.54350348,127.0699006,추가 1시간 할인 혜택 제공
39,히어로보드게임카페 어린이대공원점,교육/엔터,보드카페,서울특별시 광진구 화양동 111-161 5층,https://www.instagram.com/alliance.student.konkuk/p/DGx2rbWP9cP/,[건국대학교 총학생회 그린 X 히어로보드게임카페 어린이대공원점],37.54743988,127.0718164,"평일 및 주말 기본 요금 인당 2시간에 3천원 적용, 2시간 이후 일반 요금 적용(10분당 500원씩 적용)"
40,오늘스냅,교육/엔터,스냅사진,,https://www.instagram.com/p/DQOdxWjj0sh/?img_index=1,[건국대학교 총학생회 그린 X 오늘스냅],,,"1. 라이트, 베이직, 딥 예약시 1만원 할인
2. 스탠다드, 디테일, 디럭스예약시 10% 할인
3. (공통) 인 당 세부보정본 1장 추가"
41,오늘스냅,교육/엔터,,,https://www.instagram.com/p/DQOdxWjj0sh/?img_index=1,[건국대학교 총학생회 그린 X 오늘스냅],,,"1. 라이트, 베이직, 딥 예약시 1만원 할인
2. 스탠다드, 디테일, 디럭스예약시 10% 할인
3. (공통) 인 당 세부보정본 1장 추가"
42,그레이 바버샵,미용,미용실,서울특별시 광진구 자양동 775 1층 그레이바버샵,https://www.instagram.com/alliance.student.konkuk/p/DJghLQfP07Q/,[건국대학교 총학생회 그린 X 그레이 바버샵],37.53820398,127.0799843,"모든 시술 총액 5% 할인, 네이버 리뷰 작성 시, 10% 할인 (예약 필수)"
43,열두달미장원,미용,미용실,서울특별시 광진구 화양동 216,https://www.instagram.com/alliance.student.konkuk/p/DI-ZzLcvfqM/,[건국대학교 총학생회 그린 X 열두달미장원],37.5472923,127.0732766,"1명 방문 시 10% 할인, 2명 방문 시 20% 할인, 3명 이상 방문 시 30% 할인 (부분시술 제외, 컷트 제외),
같이 오는 일행이 건국대학생이 아니어도 됨.
학생신분이기만 하면 가능
(예약방법: 최소 1일전, 열두달 미장원 카카오톡 플러스 친구로 예약,
일행 당일 시술을 원칙으로 한다.)"
44,쏠뷰티스튜디오 건대점,미용,"속눈썹증모,연장",서울특별시 광진구 군자동 359-15 202호,https://www.instagram.com/alliance.student.konkuk/p/DHsG4jnvehP/,[건국대학교 총학생회 그린 X 쏠뷰티스튜디오 건대점],37.54965202,127.0699965,"속눈썹펌 10% 할인, 반영구눈썹 20000원 할인, 미인점 5000원 할인"
45,골든네일 건대점,미용,"네일아트,네일샵",서울특별시 광진구 화양동 7-6 3층,https://www.instagram.com/alliance.student.konkuk/p/DGx2glPvI28/,[건국대학교 총학생회 그린 X 골든네일 건대점],37.54121468,127.0685098,"6만원 미만은 5천원 할인, 이상은 1만원 할인(첫 방문 할인과는 중복 불가)"
46,디탐헤어 건대점,미용,미용실,서울특별시 광진구 자양동 2-1 3층,https://www.instagram.com/alliance.student.konkuk/p/DGx2XVtvH-y/,[건국대학교 총학생회 그린 X 디탐헤어 건대점],37.53930816,127.0700433,네이버 예약 후 방문 시 시술 6만원 이상 10% 할인
47,루루앤아이래쉬 건대점,미용,"속눈썹증모,연장",서울특별시 광진구 화양동 44-26,https://www.instagram.com/alliance.student.konkuk/p/DGx2SylvbY7/,[건국대학교 총학생회 그린 X 루루앤아이래쉬 건대점],37.54238501,127.0656033,네이버 예약 후 방문 시 시술비 10% 할인
48,미스테이 건대점,미용,"속눈썹증모,연장",서울특별시 광진구 자양동 226-21 B1층,https://www.instagram.com/alliance.student.konkuk/p/DGx2MFovgFp/,[건국대학교 총학생회 그린 X 미스테이 건대점],37.53892122,127.0756822,총액에서 5천원 할인
49,분칠하는 고양이,미용,메이크업,서울특별시 광진구 화양동 49-13 5층 502호,https://www.instagram.com/alliance.student.konkuk/p/DGx16YpP349/,[건국대학교 총학생회 그린 X 분칠하는 고양이],37.54187791,127.0664526,"퍼스널 컬러 베이직에서 프리미엄으로 업그레이드, 메이크업 진행 시 속눈썹 무료 추가"
50,설렘 미용실,미용,미용실,서울특별시 광진구 화양동 5-30 설렘,https://www.instagram.com/alliance.student.konkuk/p/DGx12W9PmSx/,[건국대학교 총학생회 그린 X 설렘 미용실],37.54189095,127.0708284,"1. 남자 커트 + 다운펌 네이버 예약 결제 리뷰 작성 시 3만원 할인
2, 여자 파마, 염색, 클리닉 30% 할인"
51,CHOP헤어 건대로데오점,미용,미용실,서울특별시 광진구 자양동 5-13 로데오프라자 1층 CHOP헤어,https://www.instagram.com/alliance.student.konkuk/p/DGx1i__Phjc/,[건국대학교 총학생회 그린 X chop헤어 건대로데오점],37.53964609,127.0690294,"총액의 10% 할인, 네이버 예약 시 15% 할인, 포토리뷰 시 20%까지 할인(커트 및 부분 시술 제외)"
52,심쿵피어싱,미용,패션잡화,서울 광진구 능동로 141 1층 심쿵피어싱,https://www.instagram.com/p/DGx1y2Cvoju/?img_index=1,[건국대학교 총학생회 그린 X 심쿵피어싱],37.54341717,127.0719932,"시술비 1000원 할인, 피어싱 5개 이상 구매 시 한 개 더 증정(8000원 이하)"
53,바이진헤어 건대1호점,미용,미용실,"서울 광진구 동일로22길 117-5 1,2층",https://www.instagram.com/p/DGx1_8cvkus/?img_index=1,[건국대학교 총학생회 그린 X 바이진 1호점],37.54091517,127.0705245,"커트 포함 모든 시술 5% 할인 (네이버 리뷰 필수) (25학번 신입생 첫 방문 시 시술 30%, 커트 5% 할인)"
54,쭈꾸미도사 건대점,음식점,주꾸미요리,서울특별시 광진구 화양동 7-38 1층 쭈꾸미도사,https://www.instagram.com/alliance.student.konkuk/p/DMaWpzavvRv/,[건국대학교 총학생회 그린 X 쭈꾸미도사 건대점],37.54097081,127.0692289,"총액의 5% 할인, 50,000원 이상 결제 시 10% 할인"
55,스시붐,음식점,"초밥,롤",서울특별시 광진구 군자동 371-4,https://www.instagram.com/alliance.student.konkuk/p/DNa0Iphv8g5/,[건국대학교 총학생회 그린 X 스시붐],37.54841111,127.072765,총액의 10% 할인
56,천향마라탕,음식점,중식당,서울특별시 광진구 자양동 9-29,https://www.instagram.com/alliance.student.konkuk/p/DHx4XPRvbwX/,[건국대학교 총학생회 그린 X 천향마라탕],37.53992091,127.0672968,"1. 마라탕만 10% 할인(사리, 고기 추가 제외)
2. 4인 이상 방문 시 옥시바삭, 꿔바로우(소) 중 택1 제공
3. 4인 미만 방문 시 탄산음료 1캔 제공"
57,빕스 어린이대공원점,음식점,패밀리레스토랑,서울특별시 광진구 화양동 527 KCC파크타운 2층,https://www.instagram.com/alliance.student.konkuk/p/DHsGxD7PCJh/,[건국대학교 총학생회 그린 X 빕스 어린이대공원점],37.54658274,127.0750378,"1. 총 금액의 20% 할인 (30만원 한도 내)
2. 2인당 에이드 1잔 제공"
58,상상카츠 건대점,음식점,돈가스,서울특별시 광진구 화양동 3-43 1층,https://www.instagram.com/alliance.student.konkuk/p/DGoIuKBT1Fw/,[건국대학교 총학생회 그린 X 상상카츠 건대점],37.54264431,127.0713738,"14~16시 방문 시, 음료수 제공"
59,건대 장터국밥,음식점,한식,서울특별시 광진구 화양동 12-42 1층,https://www.instagram.com/alliance.student.konkuk/p/DGoK92Pz6zT/,[건국대학교 총학생회 그린 X 건대 장터국밥],37.54418383,127.0700473,2인 이상 방문 시 1000원 할인
60,건대냉면만두국밥,음식점,한식,서울특별시 광진구 화양동 34-2 1층,https://www.instagram.com/alliance.student.konkuk/p/DGoK8dRTL9l/,[건국대학교 총학생회 그린 X 건대냉면만두국밥],37.54384316,127.069446,1인당 만두 1개 서비스 제공
61,건대사시미,음식점,생선회,서울특별시 광진구 화양동 8-92,https://www.instagram.com/alliance.student.konkuk/p/DGoK5B-z_ZG/,[건국대학교 총학생회 그린 X 건대사시미],37.54139603,127.0702292,"소주 1병 서비스, 10만원 이상 결제 시 5% 할인(소주 중복 불가, 금,토 공휴일 전날 제외)"
62,고씨네 건국대점,음식점,카레,서울특별시 광진구 화양동 3-42 2층,https://www.instagram.com/alliance.student.konkuk/p/DGoK4W6z2yy/,[건국대학교 총학생회 그린 X 고씨네 건국대점],37.5425373,127.0714645,"고로케 1개, 닭튀김 1개 제공"
63,기절초풍물닭갈비 자양점,음식점,닭요리,서울특별시 광진구 자양동 617-25 1층,https://www.instagram.com/alliance.student.konkuk/p/DGoK1j9TSZC/,[건국대학교 총학생회 그린 X 기절초풍물닭갈비 자양점],37.53300896,127.0801672,라면사리 또는 음료 서비스 제공
64,노모어피자 구의점,음식점,피자,서울특별시 광진구 자양동 765-8 1층,https://www.instagram.com/alliance.student.konkuk/p/DGoKz9yTE_5/,[건국대학교 총학생회 그린 X 노모어피자 구의점],37.54094946,127.0833134,"전화 주문, 방문 포장 시 총액의 10% 할인, 4판 이상 주문 시 음료 1.25L 1개 서비스 제공"
65,돈조은날삼겹살,음식점,고기구이,서울특별시 광진구 화양동 496-10,https://www.instagram.com/alliance.student.konkuk/p/DGoKhJVT8Zn/,[건국대학교 총학생회 그린 X 돈조은날삼겹살],37.54597736,127.0760133,주류 10% 할인
66,돕감자탕전문점,음식점,감자탕,서울특별시 광진구 화양동 9-22,https://www.instagram.com/alliance.student.konkuk/p/DGoKgmfz3_3/,[건국대학교 총학생회 그린 X 돕감자탕전문점],37.54148282,127.0692729,"2인당 음료 1병 / 4인당 음료 2병 제공, 주류 1병 제공 중 택 1"
67,드로잉레시피,음식점,양식,서울특별시 광진구 자양동 533-4 드로잉레시피,https://www.instagram.com/alliance.student.konkuk/p/DGoKdmKTQ1Z/,[건국대학교 총학생회 그린 X 드로잉레시피],37.53702302,127.0700897,"당일 생일자 방문 시 리유니트 스파클링 와인 4종류 중 택 1 제공, 매장 방문 1인 1메뉴 (피자, 파스타) 주문 시 총액의 5% 할인 (음료, 주류 제외)"
68,로니로티 건대점,음식점,양식,서울특별시 광진구 화양동 7-44 단산화빌딩,https://www.instagram.com/alliance.student.konkuk/p/DGoKcLnTKl_/,[건국대학교 총학생회 그린 X 로니로티 건대점],37.54095945,127.0684687,"에이드 1회 제공 2인 1잔, 3~4인 2잔, 에이드 이후 탄산 종류 상관없이 무한리필"
69,만원수산 건대점,음식점,생선회,서울특별시 광진구 화양동 9-76 101호 1층 만원수산,https://www.instagram.com/alliance.student.konkuk/p/DGoKXivz7g6/,[건국대학교 총학생회 그린 X 만원수산 건대점],37.54225783,127.0696338,소주 1병당 1천원 할인
70,메이빌 본점,음식점,양식,서울특별시 광진구 화양동 48-25 B1F,https://www.instagram.com/alliance.student.konkuk/p/DGoKWMEz5iu/,[건국대학교 총학생회 그린 X 메이빌 본점],37.54131808,127.0680946,"케이준 치킨 샐러드, 탄산음료 중 택 1 제공"
71,명봉양꼬치 건대본점,음식점,양꼬치,서울특별시 광진구 자양동 4-1,https://www.instagram.com/alliance.student.konkuk/p/DGoKRy6zq-S/,[건국대학교 총학생회 그린 X 명봉양꼬치 건대본점],37.53811353,127.068658,"테이블 당 음료수 1개, 고려촌 컵술 100ml (바이주) 1개 중 택 1 제공"
72,사잇집,음식점,한식,서울특별시 광진구 화양동 487-2,https://www.instagram.com/alliance.student.konkuk/p/DGoJBFYziTA/,[건국대학교 총학생회 그린 X 사잇집],37.54560508,127.0769764,"2인 3메뉴 주문 시 음료 1개, 3인 5메뉴 주문 시 물만두 1개, 4인 6메뉴 주문 시 음료 1개 + 물만두 1개"
73,새마을식당 건대점,음식점,고기구이,서울특별시 광진구 화양동 47-77 1층 새마을식당,https://www.instagram.com/alliance.student.konkuk/p/DGoCVgsTTOg/,[건국대학교 총학생회 그린 X 새마을 식당 건대점],37.54158156,127.0680408,"2인당 음료수 1개, 4인당 음료수 2개 제공"
74,소문난닭칼국수닭곰탕,음식점,닭요리,서울특별시 광진구 화양동 515,https://www.instagram.com/alliance.student.konkuk/p/DGoCThIT4qP/,[건국대학교 총학생회 그린 X 소문난닭칼국수닭곰탕],37.54507099,127.0756791,2인당 음료수 1개 제공
75,시옌,음식점,중식당,서울특별시 광진구 화양동 3-14,https://www.instagram.com/alliance.student.konkuk/p/DGoCSVaTOAY/,[건국대학교 총학생회 그린 X 시옌],37.54340005,127.0717044,코스와 세트메뉴를 제외한 모든 메뉴 10% 할인
76,신사소곱창 건대점,음식점,"곱창,막창,양",서울특별시 광진구 화양동 10-8 1층 신사소곱창 건대점,https://www.instagram.com/alliance.student.konkuk/p/DGoCKdkzguw/,[건국대학교 총학생회 그린 X 신사소곱창 건대점],37.5427583,127.0699857,"볶음밥, 멸치국수, 감자와 떡사리 중 택 1 제공"
77,양밍위 황먼지 미판 건대본점,음식점,중식당,서울특별시 광진구 화양동 34-48 1층,https://www.instagram.com/alliance.student.konkuk/p/DGoCHKezaHC/,[건국대학교 총학생회 그린 X 양밍위 황먼지 미판 건대본점/바텀스업],37.54308302,127.0687731,"음료 제공 1인당 (2천원), 총액의 10% 할인 중 택 1 제공"
78,언더다이닝 건대본점,음식점,양식,서울특별시 광진구 자양동 9-3 지하1층,https://www.instagram.com/alliance.student.konkuk/p/DGoCFnbTCRJ/,[건국대학교 총학생회 그린 X 언더다이닝 건대본점],37.5403755,127.0670699,총액의 10% 할인
79,얼라이브도우,음식점,피자,서울특별시 광진구 자양동 225-38 1층,https://www.instagram.com/alliance.student.konkuk/p/DGoB_ARTNjF/,[건국대학교 총학생회 그린 X 얼라이브도우],37.53865361,127.0772277,"테이블 당 탄산음료 1개, 생맥주 1잔 중 택 1 제공"
80,연탄불꿀곱창,음식점,"곱창,막창,양",서울특별시 광진구 자양동 226-38 동화빌딩,https://www.instagram.com/alliance.student.konkuk/p/DGoB9sRTuIk/,[건국대학교 총학생회 그린 X 연탄불꿀곱창],37.53839255,127.0768761,4인 기준 음료 1캔 제공
81,열불날개 건대본점,음식점,닭요리,서울특별시 광진구 화양동 9-2 1층 열불날개 본점,https://www.instagram.com/alliance.student.konkuk/p/DGoB7FhTPRl/,[건국대학교 총학생회 그린 X 열불날개 건대본점],37.54250798,127.0697221,"평일(월~목) 17시 ~ 마감 시까지 테이블 당 주먹밥, 계란찜 서비스 중 택 1 (매장 내 자체 이벤트와 중복 불가)"
82,원조자양감자탕,음식점,감자탕,서울특별시 광진구 자양동 224-23,https://www.instagram.com/alliance.student.konkuk/p/DGoBy5lzCvL/,[건국대학교 총학생회 그린 X 원조자양감자탕],37.5382657,127.0774084,3인분 이상 주문시 음료수 서비스 제공
83,육회한연어 건대점,음식점,일식당,서울특별시 광진구 화양동 49-13,https://www.instagram.com/alliance.student.konkuk/p/DGoBwFSzoll/,[건국대학교 총학생회 그린 X 육회한연어 건대점],37.54187791,127.0664526,"총액의 5% 할인, 10만원 이상 시 10% 할인"
84,이항아,음식점,한식,서울특별시 광진구 화양동 119-5 1층 이항아,https://www.instagram.com/alliance.student.konkuk/p/DGoBufSzWFG/,[건국대학교 총학생회 그린 X 이항아],37.54754384,127.0706452,3만원 이상 주문 시 음료수 제공 (4인 이상 방문 시 2개 제공)
85,재희네식당,음식점,한식,서울특별시 광진구 화양동 15-6,https://www.instagram.com/alliance.student.konkuk/p/DGoBrn6TvPP/,[건국대학교 총학생회 그린 X 재희네식당],37.54515585,127.0709142,총액에서 500원 할인
86,정직유부 건대점,음식점,분식,서울특별시 광진구 화양동 3-33 1층,https://www.instagram.com/alliance.student.konkuk/p/DGoBpi7T-bc/,[건국대학교 총학생회 그린 X 정직유부 건대점],37.54295021,127.0716572,테이블 당 탄산음료(190ml) 1개 제공
87,주먹구구,음식점,고기구이,서울특별시 광진구 화양동 111-72,https://www.instagram.com/alliance.student.konkuk/p/DGoBoCMzvyF/,[건국대학교 총학생회 그린 X 주먹구구],37.54696406,127.0744422,"4인 이상 테이블 기준 3만원 이상 결제 시 음료, 된장찌개 중 택 1 제공"
88,쪽갈비,음식점,고기구이,서울특별시 광진구 화양동 207,https://www.instagram.com/alliance.student.konkuk/p/DGoBls5zwYM/,[건국대학교 총학생회 그린 X 쪽갈비],37.54721067,127.0728339,4인 테이블 시 음료 1개 제공
89,최신족발,음식점,"족발,보쌈",서울특별시 광진구 화양동 34-3,https://www.instagram.com/alliance.student.konkuk/p/DGoBfi8zmlj/,[건국대학교 총학생회 그린 X 최신족발],37.54362886,127.0693523,2인당 음료 한 캔 제공
90,코코도리,음식점,일식당,서울특별시 광진구 화양동 487-2 1층,https://www.instagram.com/alliance.student.konkuk/p/DGoBdZQT6V-/,[건국대학교 총학생회 그린 X 코코도리],37.54560508,127.0769764,"2인 3메뉴 주문 시 음료 1개, 3인 5메뉴 주문 시 음료 1개 + 고로케 1개, 4인 6메뉴 주문 시 음료 2개"
91,타이 인 플레이트,음식점,태국음식,서울특별시 광진구 화양동 507-6 103호 타이 인 플레이트,https://www.instagram.com/alliance.student.konkuk/p/DGoBbzLzawP/,[건국대학교 총학생회 그린 X 타이 인 플레이트],37.54560441,127.0766076,"2인 3메뉴 주문 시 음료 1개, 3인 5메뉴 주문 시 음료 500ml 1개, 4인 6메뉴 주문 시 음료 2개"
92,탄토탄토,음식점,양식,서울특별시 광진구 화양동 11-7 2층,https://www.instagram.com/alliance.student.konkuk/p/DGoBaP1zgLh/,[건국대학교 총학생회 그린 X 탄토탄토],37.54251919,127.070725,평일 점심 20% 할인
93,통큰솥뚜껑닭볶음탕 건대점,음식점,한식,서울특별시 광진구 화양동 9-80 1층,https://www.instagram.com/alliance.student.konkuk/p/DGoBOegzX_2/,[건국대학교 총학생회 그린 X 통큰솥뚜껑닭볶음탕 건대점],37.54211593,127.0696192,모든 인원이 학생증 지참 시 10% 할인
94,트라타 건국대점,음식점,"멕시코,남미음식",서울특별시 광진구 자양동 226-6 1층,https://www.instagram.com/alliance.student.konkuk/p/DGoBLGazDCU/,[건국대학교 총학생회 그린 X 트라타 건국대점],37.53855884,127.0762338,"총액의 15% 할인(주류 제외, 영수증 리뷰 필수)"
95,푸라닭 화양점,음식점,"치킨,닭강정",서울특별시 광진구 화양동 18-26 1층,https://www.instagram.com/alliance.student.konkuk/p/DGoBFVLz_-x/,[건국대학교 총학생회 그린 X 푸라닭 화양점],37.54756906,127.0702094,"2인 1메뉴 주문 시 치즈볼 2개, 맥주 2+1, 소주 천원 할인 중 택 1 제공"
96,푸로운,음식점,식료품,서울특별시 광진구 화양동 1 건국대학교 기술혁신관 603호,https://www.instagram.com/alliance.student.konkuk/p/DGoBBp1T35e/,[건국대학교 총학생회 그린 X 푸로운],37.54254123,127.0737252,온라인 30% 할인 쿠폰 제공
97,한해,음식점,생선회,서울특별시 광진구 화양동 499-1 2층,https://www.instagram.com/alliance.student.konkuk/p/DGoA8CYT_q2/,[건국대학교 총학생회 그린 X 한해],37.54652954,127.0755229,"총액의 10% 할인 (단, 할인이 적용된 메뉴 및 주류·음료 제외)"
98,홍콩,음식점,중식당,서울특별시 광진구 화양동 428-1,https://www.instagram.com/alliance.student.konkuk/p/DGn39jgP-Z_/,[건국대학교 총학생회 그린 X 홍콩포차],37.54522607,127.0767663,4인 이상 방문 후 1인당 1메뉴 주문 시 군만두 서비스
99,겨울나그네레스토랑,음식점,돈가스,서울특별시 광진구 화양동 2-47 2-47 겨울나그네 지하,https://www.instagram.com/alliance.student.konkuk/p/DGn_nLNz2WX/,[건국대학교 총학생회 그린 X 겨울나그네레스토랑],37.54411536,127.0721334,1만 5천원 이상 안주 3개 주문 시 1만원 이하 안주 1개 제공
100,핵밥 건대본점,음식점,덮밥,서울 광진구 능동로 127 2층,https://www.instagram.com/p/DGoA2LRTOkT/?utm_source=ig_web_copy_link&igsh=MXBianhjN3ZidnEyeA==,[건국대학교 총학생회 그린 X 핵밥 건대점],37.54227126,127.0714247,2인당 음료 한 캔 제공
101,백삼호 자양본점,음식점,고기구이,서울 광진구 아차산로 312 1층 103호,https://www.instagram.com/p/DGoKGqjzH8Z/?utm_source=ig_web_copy_link&igsh=MWRydzE3MGRjM3lodg==,[건국대학교 총학생회 그린 X 백삼호],37.5377682,127.0773562,"총액의 5% 할인, 영수증 리뷰 시 음료수 서비스 제공"
102,믿소사 뼈구이,음식점,요리주점,서울 광진구 아차산로31길 54 1층 믿소사,https://www.instagram.com/p/DGoKKwFzPpo/?utm_source=ig_web_copy_link&igsh=bjQ4NGI3bTVyZmIw,[건국대학교 총학생회 그린 X 믿소사],37.54325086,127.0704757,한상 차림 비용에서 10% 할인 (무제한 주류 제외)
103,간장삼겹살 동방생고기 건대,음식점,고기구이,서울 광진구 아차산로31길 28 2층,https://www.instagram.com/p/DGoLL0oTjVS/?utm_source=ig_web_copy_link&igsh=OTBqdHl5c3QxaDI=,[건국대학교 총학생회 그린 X 간장삼겹살 동방생고기 건대],37.5421492,127.0698849,"4인 테이블 기준 주류, 음료 중 택 1 제"
104,미미타코야끼&카페,음식점,타코야끼,서울 광진구 광나루로24길 29 1층,https://www.instagram.com/p/DHsG0vTvwg6/?utm_source=ig_web_copy_link&igsh=eXhrenR5YjZyeTdt,[건국대학교 총학생회 그린 X 미미타코야끼&카페],37.54523912,127.0767861,"14알부터 반반 메뉴 가능, 추가요금 500원-> 8알부터 반반메뉴 가능, 추가요금 없음, 건대인의 세트메뉴 2가지 이상 구성(기존 단품 대비 10-20퍼센트 할인)"
105,묵찌빠 하우스,음식점,고기구이,서울 광진구 아차산로 31길 20-3 반지층,https://www.instagram.com/p/DNzwNEwXgf4/?utm_source=ig_web_copy_link&igsh=MWd5cGtjODVlZ3Vzaw==,[건국대학교 총학생회 그린 X 묵찌빠하우스],37.54186954,127.0698654,"2-3인 방문 시 음료수 1병 또는 삼겹살 100g 제공, 4인 방문 시 소주 1병 또는 삼겹살 200g 제공"
106,소문난숯불막창 건대본점,음식점,"곱창,막창,양",서울 광진구 동일로24길 79 1층,https://www.instagram.com/p/DODMC9zD3bR/?utm_source=ig_web_copy_link&igsh=MTFweGoxcmJ4cXhtMA==,[건국대학교 총학생회 그린 X 소문난숯불막창 건대본점],37.54279847,127.0694096,"1. 총액의 5% 할인
2. 치즈계란찜 1회 제공"
107,DY HOUSE 군자,의류/주거,"쉐어하우스,하숙",서울특별시 광진구 군자동 48-35 3층 ~ 6층(다락층),https://www.instagram.com/alliance.student.konkuk/p/DNiOzMgPPph/,[건국대학교 총학생회 그린 X DY house 군자],37.55503813,127.0752088,"1. 중개수수료 면제
2. 1년 계약 시 15일 렌트프리 제공
3. 매월 커피 쿠폰 10매 제공
4. 6개월 계약 시 유료 라커룸 1개월 제공"
108,동네친구쉐어하우스,의류/주거,"쉐어하우스,하숙",서울특별시 광진구 화양동 33-34 2층 101호,https://www.instagram.com/alliance.student.konkuk/p/DGoNIm4TmQH/,[건국대학교 총학생회 그린 X 동네친구 쉐어하우스],37.54486524,127.0688551,6개월 계약 시 5% 가격 할인 (공실 현황에 따라 이벤트 적용이 어려울 수 있습니다.)
109,리뉴드 성수,의류/주거,구제의류,서울특별시 성동구 성수동2가 275-26 1층,https://www.instagram.com/alliance.student.konkuk/p/DGoNGpuTuSZ/,[건국대학교 총학생회 그린 X 리뉴드 성수],37.54486524,127.0688551,총액의 20% 할인
110,리버클래시 롯데백화점 건대스타시티점,의류/주거,남성정장,서울특별시 광진구 자양동 227-342 6층,https://www.instagram.com/alliance.student.konkuk/p/DGoNEGBz3xT/,[건국대학교 총학생회 그린 X 리버클래시 롯데백화점 건대스타시티점],37.53878862,127.0711367,총액의 추가 10% 할인 (수선비 별도)
111,슈니하우스,의류/주거,"쉐어하우스,하숙",서울특별시 광진구 화양동 16-23 102호 슈니하우스,https://www.instagram.com/alliance.student.konkuk/p/DGoNAcoTgzp/,[건국대학교 총학생회 그린 X 슈니하우스],37.54532633,127.0693769,월세 3만원 할인 (1~22호점 동일 혜택 적용)
112,열린옷장,의류/주거,의류대여,서울특별시 광진구 화양동 48-3 웅진빌딩 502호,https://www.instagram.com/alliance.student.konkuk/p/DGoM-hfTsGB/,[건국대학교 총학생회 그린 X 열린옷장],37.54142644,127.0672116,방문 시 정장 대여료 10% 할인
113,우성공인중개사사무소,의류/주거,중개업,서울특별시 광진구 화양동 33-21,https://www.instagram.com/alliance.student.konkuk/p/DGoM8seTy7u/,[건국대학교 총학생회 그린 X 우성공인중개사사무소],37.5452148,127.0685841,중개 보수 10% 할인
114,이브자리 어린이대공원점,의류/주거,"침구,커튼",서울특별시 광진구 군자동 355-14 1층 이브자리 어린이대공원점,https://www.instagram.com/alliance.student.konkuk/p/DGoM6BvTYrq/,[건국대학교 총학생회 그린 X 이브자리 어린이대공원점],37.54843538,127.0686562,"총액의 10% 할인 (일부 할인 상품 제외), 10만원 이상 구매 시 사은품 증정"
115,인디고 블루,의류/주거,구제의류,서울특별시 광진구 화양동 12-71 B1,https://www.instagram.com/alliance.student.konkuk/p/DGoM27Gz6uJ/,[건국대학교 총학생회 그린 X 인디고 블루],37.5447358,127.0712165,총액의 10% 할인
116,파크타운부동산공인중개사사무소,의류/주거,중개업,서울특별시 광진구 화양동 499-47,https://www.instagram.com/alliance.student.konkuk/p/DGoMUrizFMx/,[건국대학교 총학생회 그린 X 파크타운부동산공인중개사사무소],37.54625491,127.074966,중개 보수 10% 할인
117,데일리 마트,의류/주거,"슈퍼, 마트",서울특별시 광진구 능동로19길 47 화양타워 1층,https://www.instagram.com/p/DKKXqwIvWsx/?utm_source=ig_web_copy_link&igsh=ZzhqOXlib2Q1cHI=,[건국대학교 총학생회 그린 X 데일리 마트],37.53315344,127.0672364,"3만원 이상 결제 시, 총액의 5% 할인"
118,나이키 바이 건대,의류/주거,스포츠 용품,"서울 광진구 아차산로 200 커먼그라운드 스트릿마켓동 1, 2층",https://www.instagram.com/p/DGoMveXT9cv/?img_index=1,[건국대학교 총학생회 그린 X 커먼그라운드 나이키],37.54105663,127.0656692,"기존 할인율 + 추가 10% 할인 (최대 30%까지 적용)
*일부 품 및 발매 상품 제외"
119,진성한공인중개사무소,의류/주거,중개업,서울특별시 광진구 아차산로29길 12 1층,https://www.instagram.com/p/DGoMw95zkfl/?img_index=1,[건국대학교 총학생회 그린 X 전성한공인중개사무소],37.54143114,127.0684411,중개 보수 10% 할인
120,바른부동산공인중개사무소,의류/주거,중개업,서울특별시 광진구 능동로 21,https://www.instagram.com/p/DGoNC3OT0BM/?img_index=1,[건국대학교 총학생회 그린 X 바른부동산공인중개사사무소],37.53355114,127.0672436,중개 수수료 10% 할인
121,카페 베이글릿,카페,베이커리,서울특별시 광진구 화양동 8-38 1층,https://www.instagram.com/alliance.student.konkuk/p/DMaS2JEPeRN/,[건국대학교 총학생회 그린 X 카페 베이글릿],37.54173345,127.0697863,총액의 15% 할인
122,가토베이글,카페,베이커리,서울특별시 광진구 구의동 241-7 1층 4호,https://www.instagram.com/alliance.student.konkuk/p/DGoMIyezud-/,[건국대학교 총학생회 그린 X 가토베이글],37.54009565,127.088415,"1. 총액의 5% 할인 (세트 할인 제외),
2. 10만원 이상 단체 주문 시 10% 할인 (배달 불가)"
123,애드앤드,카페,카페,서울특별시 광진구 화양동 474-1 1층,https://www.instagram.com/alliance.student.konkuk/p/DGoL_OhTnfX/,[건국대학교 총학생회 그린 X 애드앤드],37.54529474,127.0774323,"커피, 논커피 메뉴 3% 할인 (쿠폰 적립 불가)"
124,에스프레소 바 시 자양점,카페,카페,서울특별시 광진구 자양동 859 123호,https://www.instagram.com/alliance.student.konkuk/p/DGoL5ISzMrW/,[건국대학교 총학생회 그린 X 에스프레소 바 시 자양점],37.53771186,127.0815489,총액의 10% 할인
125,엑스엑스커피메이커 건국대점,카페,카페,서울특별시 광진구 화양동 428-1 1층 엑스엑스커피메이커건대점,https://www.instagram.com/alliance.student.konkuk/p/DGoL2_iT1EG/,[건국대학교 총학생회 그린 X 엑스엑스커피메이커 건국대점],37.54522607,127.0767663,음료 10잔 당 아메리카노(S) 1잔 제공
126,요커 건대점,카페,카페,서울특별시 광진구 화양동 12-35 1층,https://www.instagram.com/alliance.student.konkuk/p/DGoLxmLTBf9/,[건국대학교 총학생회 그린 X 요커 건대점],37.5435004,127.0705286,"전 메뉴 10% 할인 (단, 아메리카노는 제외)"
127,카페704호,카페,카페,서울특별시 광진구 자양동 225-37 서경빌딩 1층,https://www.instagram.com/alliance.student.konkuk/p/DGoLwGpzCUZ/,[건국대학교 총학생회 그린 X 카페 704호],37.53864088,127.0774069,음료 테이크 아웃 시 잔당 500원씩 할인
128,카페 오알피하우스,카페,카페,서울특별시 광진구 화양동 12-39 2층,https://www.instagram.com/alliance.student.konkuk/p/DGoLsBtzt8j/,[건국대학교 총학생회 그린 X 카페 오알피하우스],37.54391078,127.0701231,음료 5% 할인
129,카페 카리타스,카페,카페,서울특별시 광진구 화양동 94-7 2층,https://www.instagram.com/alliance.student.konkuk/p/DGoLp53zjnc/,[건국대학교 총학생회 그린 X 카페 카리타스],37.54577398,127.073055,"1. 건국대학교 대학생 및 대학원생까지 20% 상시 할인
2. 동아리 및 학교 모임 5인 이상 시 프라이빗 공간 대여
3. 카페 이용 시 대형 전자 칠판 이용 가능
4. 프린트 이용 가능(10장 무료, 추가 인쇄 시 장당 20원), 콘센트 이용 가능"
130,카페인모아,카페,카페,서울특별시 광진구 자양동 227-20 모아빌딩 1층 카페인모아,https://www.instagram.com/alliance.student.konkuk/p/DGoLmTFzc2h/,[건국대학교 총학생회 그린 X 카페인모아],37.53832591,127.0752881,블렌드 메뉴 제외 모든 음료 500원 할인 (포장 추가 500원 할인)
131,콩카페 서울건대점,카페,카페,서울특별시 광진구 화양동 3-37 1층,https://www.instagram.com/alliance.student.konkuk/p/DGoLk2lzdPL/,[건국대학교 총학생회 그린 X 콩카페 서울건대점],37.54269327,127.0716049,"평일 방문시 베트남 커피(코코넛 연유 커피, 연유 커피), 스무디(코코넛 스무디, 코코넛 카카오 스무디,코코넛 멍빈 스무디,두리안 스무디,아보카도 스무디), 반미(비프, 포크, 치킨) 10% 할인"
132,엔젤리너스커피 건대역점,카페,카페,서울 광진구 능동로 103,https://www.instagram.com/p/DGoL0aQzEJd/?utm_source=ig_web_copy_link&igsh=MTgwa2ozZjVueW5naQ==,[건국대학교 총학생회 그린 X 엔젤리너스커피 건대역점],37.54033404,127.0705071,"학생증 직원에게 제시 후 pos 주문 시, 제조 음료 15% 할인(시즌 음료, RTD 제외)"
133,무드림 베이커리 카페 건대점,카페,카페,"서울 광진구 아차산로31길 20 2층, 3층",https://www.instagram.com/p/DGoMBktzWI4/?utm_source=ig_web_copy_link&igsh=OGdhemV0MjFyd29y,[건국대학교 총학생회 그린 X 무드림],37.54190727,127.0697499,"음료, 디저트류, 주류, 안주류 10% 할인"
134,냥토피아 건대본점,카페,카페,서울 광진구 능동로 147-1 3층 냥토피아 카페앤샵,https://www.instagram.com/p/DGoMEijzdie/?utm_source=ig_web_copy_link&igsh=b3Nkb2VyOTN2cnVl,[건국대학교 총학생회 그린 X 냥토피아 카페앤샵],37.54403539,127.072222,음료 10% 할인
135,브런치 카페 고은별 샌드위치,카페,베이커리,서울 광진구 자양로 177 1층,https://www.instagram.com/p/DGoMFGAz0r7/?utm_source=ig_web_copy_link&igsh=MTBhajlnY2kzaXo3bQ==,[건국대학교 총학생회 그린 X 고은별 샌드위치],37.54345774,127.0843365,"1. 홀 : 음식(샌드위치 이상) 주문 시 아메리카노, 아이스티 중 택 1 제공
2. 배달 : 음식(샌드위치 이상) 주문 시 ""건대 2025그린 아이스티 or 아메리카노 서비스"" 요청사항에 작성 시 제공"
136,밀크컨셉 건대점,카페,아이스크림,서울 광진구 군자로4길 1 1층 101호,https://www.instagram.com/p/DNzv0PGXq7p/?utm_source=ig_web_copy_link&igsh=N2o2aGJ4cmprZWIx,[건국대학교 총학생회 그린 X 밀크컨셉],37.5454355,127.0709507,"총액의 15% 할인 (콘, 음료 제외)"
137,베네핏홀덤펌,호프,"맥주, 호프",서울 광진구 능동로13길 54 2층,https://www.instagram.com/p/DGx5dW6v1uw/?img_index=1,[건국대학교 총학생회 그린 X 베네핏홀덤펍],37.5442666,127.0697892,매장이용권 10% 할인
138,을지포차 건대점,호프,요리주점,서울특별시 광진구 화양동 48-19,https://www.instagram.com/alliance.student.konkuk/p/DNYUVF_PyOm/,[건국대학교 총학생회 그린 X 을지포차 건대점],37.54163919,127.0671555,총액의 10% 할인
139,서울포차 화양점,호프,포장마차,서울특별시 광진구 화양동 132-6 1층 서울포차,https://www.instagram.com/alliance.student.konkuk/p/DII0D0uPc-0/,[건국대학교 총학생회 그린 X 서울포차 화양점],37.54736642,127.0705105,"5만원 이상 주문 시 뚝배기 할인메뉴(5,900원) 서비스 제공"
140,이십일도씨,호프,요리주점,서울특별시 광진구 화양동 8-95 1층,https://www.instagram.com/alliance.student.konkuk/p/DIIzYoLPkDv/,[건국대학교 총학생회 그린 X 이십일도씨],37.54131361,127.0701889,한 테이블 당 5만원 이상 주문 시 10% 할인
141,쿠시노아 군자점,호프,이자카야,서울특별시 광진구 군자동 362-1 가동 1층 103호,https://www.instagram.com/alliance.student.konkuk/p/DHsGuLvvW8z/,[건국대학교 총학생회 그린 X 쿠시노아 군자점],37.5492697,127.0710902,"테이블 당 3만원 이상 주문시 타코야끼(8,900원 상당) 서비스 제공"
142,101호주인,호프,요리주점,서울특별시 광진구 화양동 113-1 광진코지웰 1층 101호,https://www.instagram.com/alliance.student.konkuk/p/DGn_2XNTh4D/,[건국대학교 총학생회 그린 X 101호 주인],37.54706757,127.0718409,4인 테이블 당 5만원 이상 주문 시 황도 서비스 제공
143,솔방울,호프,이자카야,서울특별시 광진구 화양동 47-76 2층,https://www.instagram.com/alliance.student.konkuk/p/DGn_wh3TsGT/,[건국대학교 총학생회 그린 X 건대 솔방울],37.5416201,127.0679271,"1. 7만 5천원 이상 결제 시 총액의 5% 할인
2. 4인 이상 10만원 이상 결제 시 5% 할인 (금, 토, 공휴일 제외)"
144,깡우동 건대점,호프,포장마차,서울특별시 광진구 화양동 8-59 1층,https://www.instagram.com/alliance.student.konkuk/p/DGn_ZhqzRSt/,[건국대학교 총학생회 그린 X 깡우동 건대점],37.54234261,127.070243,5만원 이상 결제 시 5천원 할인
145,도시맥주 건대점,호프,"맥주,호프",서울특별시 광진구 화양동 5-26 1층,https://www.instagram.com/alliance.student.konkuk/p/DGn_HixTtGl/,[건국대학교 총학생회 그린 X 도시맥주 건대점],37.5422207,127.0708512,"총액의 5% 할인, 20명 이상 단체는 10% 할인"
146,무이,호프,이자카야,"서울특별시 광진구 화양동 111-36 2,3층",https://www.instagram.com/alliance.student.konkuk/p/DGn-mQkTBAC/,[건국대학교 총학생회 그린 X 무이],37.54712147,127.0722496,"테이블 당 아이스크림 , 음료수 중 택 1 제공"
147,생활맥주 건대역점,호프,"맥주,호프",서울특별시 광진구 화양동 47-76,https://www.instagram.com/alliance.student.konkuk/p/DGn-VRGT1tR/,[건국대학교 총학생회 그린 X 생활맥주 건대역점],37.5416201,127.0679271,"1. 치킨 2마리 이상 주문 시 나초, 감자튀김, 사이드 메뉴 중 택 1 제공
2. 2인 방문 후 3만원 이상 주문 시 음료수 제공
3. 4인 이상 방문 시 맥주 4+1, 감자튀김 중 택 1 제공"
148,서울230,호프,요리주점,서울특별시 광진구 화양동 2-30 1층,https://www.instagram.com/alliance.student.konkuk/p/DGn97jJzDK9/,[건국대학교 총학생회 그린 X 서울230],37.54439368,127.071837,"펍 메뉴 5% 할인(단, 18시 이후부터 적용)"
149,신통치킨 건대점,호프,"치킨,닭강정",서울특별시 광진구 화양동 516-5,https://www.instagram.com/alliance.student.konkuk/p/DGn9z7qTl3K/,[건국대학교 총학생회 그린 X 신통치킨 건대점],37.54497906,127.0753077,테이블 당(4인) 7만원 이상 결제 시 황도 제공
150,아도겐 화양점,호프,이자카야,서울특별시 광진구 화양동 119-5 1층,https://www.instagram.com/alliance.student.konkuk/p/DGn9r95zM9_/,[건국대학교 총학생회 그린 X 아도겐 화양점],37.54754384,127.0706452,"안주류 2개 이상 주문 시 총액의 10% 할인 (주류, 음료 제외)"
151,옛날종로빈대떡,호프,요리주점,서울특별시 광진구 화양동 217 1층,https://www.instagram.com/alliance.student.konkuk/p/DGn9V8bzIeu/,[건국대학교 총학생회 그린 X 옛날종로빈대떡],37.54712583,127.0732216,음료수 1개 제공
152,잔포차탕 건대점,호프,포장마차,서울특별시 광진구 화양동 9-51,https://www.instagram.com/alliance.student.konkuk/p/DGn89uOzbpM/,[건국대학교 총학생회 그린 X 잔포차탕 건대점],37.54267502,127.0692823,총액의 5% 할인
153,장미술상 외갓집 건대점,호프,요리주점,"서울특별시 광진구 화양동 1-17 1층, 2층",https://www.instagram.com/alliance.student.konkuk/p/DGn810qzKCE/,[건국대학교 총학생회 그린 X 장미술상 외갓집 건대점],37.54474753,127.0714842,"5만원 이상 결제 시 5% 할인, 10만 원 이상 결제 시 10% 할인"
154,지그재그,호프,요리주점,서울특별시 광진구 화양동 111-27,https://www.instagram.com/alliance.student.konkuk/p/DGn8rStTon2/,[건국대학교 총학생회 그린 X 지그재그],37.54698523,127.0725589,"한 테이블 당 8만원 이상 결제 시 서비스 안주 (음료, 주류, 황도, 감자튀김) 중 택 1 제공"
155,질서정연,호프,요리주점,서울특별시 광진구 화양동 46-1 1층 질서정연,https://www.instagram.com/alliance.student.konkuk/p/DGn8jnNzBy3/,[건국대학교 총학생회 그린 X 질서정연],37.54319099,127.0677832,"감자튀김(소), 라면땅(소), 나쵸(소) 중 택 1 제공"
156,짱구야학교가자 건대점,호프,요리주점,서울특별시 광진구 화양동 9-9,https://www.instagram.com/alliance.student.konkuk/p/DGn7ZbKvqUE/,[건국대학교 총학생회 그린 X 짱구야 학교가자 건대점],37.54202046,127.0695578,"1. 2명 이상 방문 시 음료수 제공
2. 4명 이상 방문 시 방과 후 한 잔 주 제공
3. 단체 문의 요망
4. 1명만 건국대 학생임을 인증해도 위 항목 적용 가능 (졸업생, 휴학생 포함)"
157,쿠마상회,호프,이자카야,서울 광진구 아차산로33길 21-5,https://www.instagram.com/alliance.student.konkuk/p/DGn5uz3PVOK/,[건국대학교 총학생회 그린 X 쿠마상회],37.54137301,127.0698534,"고구마스틱, 팥빙수, 황도 중 택 1 제공"
158,타스 더안주셀렉트샵,호프,요리주점,서울특별시 광진구 화양동 495-19 2층,https://www.instagram.com/alliance.student.konkuk/p/DGn5IapPrW3/,[건국대학교 총학생회 그린 X 타스 더안주셀렉트샵],37.54546324,127.076319,"주류(와인, 하이볼, 소주, 맥주) 10% 할인"
159,하루 건대점,호프,이자카야,서울특별시 광진구 화양동 47-67 2층 하루,https://www.instagram.com/alliance.student.konkuk/p/DGn48urPrZa/,[건국대학교 총학생회 그린 X 하루 건대점],37.54171838,127.0676461,총액의 10% 할인
160,한토리,호프,이자카야,서울특별시 광진구 구의동 242-57 1층 한토리,https://www.instagram.com/alliance.student.konkuk/p/DGn4qU7PPrB/,[건국대학교 총학생회 그린 X 한토리],37.53855144,127.0876761,총액의 10% 할인
161,홍콩포차,호프,포장마차,서울특별시 광진구 화양동 132-75,https://www.instagram.com/alliance.student.konkuk/p/DGn39jgP-Z_/,[건국대학교 총학생회 그린 X 홍콩포차],37.54723486,127.0705419,"1. 고기 주문했을 때 정백정 참숯구이 차돌 된장찌개 제공
2. 시험기간 2주전부터 시험기간 끝주까지 한판(600g) 주문 시 반판(300g) 무료 제공
3. 군대 입대증, 휴가증, 전역증 제시 시, 한판(600g) 주문 시 반판(300g) 무료 제공 (*4인 기준 테이블 당 1번만 제공)"
162,환심,호프,이자카야,서울특별시 광진구 화양동 11-32 지하1층,https://www.instagram.com/alliance.student.konkuk/p/DGn3GfFvLcX/,[건국대학교 총학생회 그린 X 환심],37.54313735,127.0705935,총액의 10% 할인
163,몽움,호프,요리주점,아차산로25길 24 몽움,https://www.instagram.com/p/DO-aqCDj6jZ/?utm_source=ig_web_copy_link&igsh=MW1qcGt6d25penJjMQ==,[건국대학교 총학생회 그린 X 몽움],37.54240447,127.0670567,크림치즈 크래커 제공
164,무드림 다이닝바,호프,요리주점,"서울 광진구 아차산로31길 20 2층, 3층",https://www.instagram.com/p/DGn-tYDzcSc/?utm_source=ig_web_copy_link&igsh=MXZobncybW1qcHF0cA==,[건국대학교 총학생회 그린 X 무드림 다이닝바],37.54190727,127.0697499,"음료, 디저트류, 주류, 안주류 10% 할인"
165,팡두두,호프,요리주점,서울 광진구 동일로22길 96 2층,https://www.instagram.com/p/DKtI6DHPNcq/?utm_source=ig_web_copy_link&igsh=MWZqNDhmOHVtYjRrYw==,[건국대학교 총학생회 그린 X 팡두두,37.54093541,127.069367,테이블당 소주 1병 제공
166,밀주,호프,요리주점,서울 광진구 아차산로31길 20-3 1층 101호,https://www.instagram.com/p/DNGHrBMvRvH/?utm_source=ig_web_copy_link&igsh=Y2hjY3k4azB5ZW1y,[건국대학교 총학생회 그린 X 밀주],37.54186954,127.0698654,"1.총액의 10% 할인
2.떡만두 강정 제공"
167,술쟁이두번째이야기,호프,요리주점,서울 광진구 아차산로33길 24 2층,https://www.instagram.com/p/DNh-DGJPVSZ/?utm_source=ig_web_copy_link&igsh=eWtwaHh0enJlY2du,[건국대학교 총학생회 그린 X 술쟁이두번째이야기],37.54133401,127.070425,총액의 5% 할인
168,맥주컴퍼니,호프,"맥주,호프",서울 광진구 광나루로 404 2층 2호,https://www.instagram.com/p/DN2g8Qc3sa-/?utm_source=ig_web_copy_link&igsh=OGJleXUyY2JobjB2,[건국대학교 총학생회 그린 X 맥주컴퍼니],37.54699737,127.0743311,총액의 10% 할인
169,한신포차 건대점,호프,포장마차,서울 광진구 동일로22길 69-3,https://www.instagram.com/p/DODMZ0Rj14n/?utm_source=ig_web_copy_link&igsh=a2VidDlzMTYwMjlo,[건국대학교 총학생회 그린 X 한신포차 건대점],37.54169281,127.0680924,"총액의 10% 할인 (금,토 제외)"
170,베네핏홀덤펌,호프,"맥주, 호프",서울 광진구 능동로13길 54 2층,https://www.instagram.com/p/DGx5dW6v1uw/?img_index=1,[건국대학교 총학생회 그린 X 베네핏홀덤펍],37.5442666,127.0697892,매장이용권 10% 할인